City,Latitude,Longitude,AQI
Delhi,28.6139,77.2090,182
Mumbai,19.0760,72.8777,95
Bengaluru,12.9716,77.5946,68
Chennai,13.0827,80.2707,82
Hyderabad,17.3850,78.4867,90
Ahmedabad,23.0225,72.5714,120
Kolkata,22.5726,88.3639,165
Pune,18.5204,73.8567,88
Jaipur,26.9124,75.7873,135
Lucknow,26.8467,80.9462,172